{
  "2e7963656136bf6af3288d0ff8d09a90": {
    "params": {
      "budget": 0.0,
      "travel_mode": "flight",
      "destination": "spain",
      "days": 4,
      "origin": "riyadh",
      "vehicle_type": "default",
      "currency": "SAR",
      "start_date": "",
      "end_date": "",
      "interests": ""
    },
    "result": {
      "paths": [
        {
          "transport": {
            "mode": "flight",
            "origin": "Riyadh",
            "destination": "Madrid",
            "distance_km": 6496.75,
            "travel_time_str": "35h 50m",
            "cost_one_way": 817.5,
            "cost_round_trip": 1635.0,
            "breakdown": "🎫  | Exact match found in logistics database for Riyadh ↔ Madrid × 1 pax (1 adult)",
            "vehicle_type": "default",
            "booking_url": "https://www.almosafer.com/en/flights/RUH-MAD/2026-05-09/Economy/1Adult"
          },
          "budget": {
            "total": 5635.0,
            "currency": "SAR",
            "transport": 1635.0,
            "remaining": 4000.0,
            "days": 4,
            "lodging": {
              "total": 0,
              "per_day": 0,
              "pending": true,
              "max_budget": 1600.0,
              "max_per_day": 400.0,
              "user_provided": false
            },
            "party": {
              "adults": 1,
              "children": 0,
              "rooms": 1,
              "food_people_factor": 1.0
            },
            "filters": {
              "min_hotel_stars": 0,
              "min_restaurant_rating": 0.0,
              "flight_class": "coach",
              "flight_stops": "any"
            },
            "food": {
              "total": 1200.0,
              "per_day": 300.0
            },
            "activities": {
              "total": 800.0,
              "per_day": 200.0
            },
            "buffer": {
              "total": 400.0,
              "per_day": 100.0
            },
            "is_feasible": true,
            "is_suggested": true,
            "warnings": []
          },
          "activities": {
            "destination": "city",
            "vibe": "Urban exploration, nightlife, shopping, dining",
            "recommended_city": "Madrid",
            "daily_plan": {
              "1": [
                {
                  "id": "trend_4_el_retiro_",
                  "name": "🔥 TRENDING: El Retiro Park",
                  "lat": 40.419,
                  "lng": -3.6849,
                  "is_trending_spot": true,
                  "cost": 20.0,
                  "category": "attraction",
                  "description": "Madrid's green oasis and a UNESCO World Heritage Cultural Landscape, featuring beautiful gardens, the iconic Crystal Palace, a peaceful boating lake, and various cultural events.",
                  "social_buzz": "A popular destination for locals and tourists to relax and stroll, especially vibrant in May with events like the Madrid Book Fair and San Isidro festivities.",
                  "rating": 4.7,
                  "price_range": "$",
                  "tags": [
                    "park",
                    "nature",
                    "relaxation",
                    "gardens",
                    "Crystal Palace"
                  ],
                  "source": "GetYourGuide, Unique Things to Do, Whattodo, Civitatis",
                  "booking_url": "https://www.google.com/search?q=El+Retiro+Park+Madrid+tickets+booking"
                },
                {
                  "id": "trend_0_diverxo",
                  "name": "🔥 TRENDING: DiverXO",
                  "lat": 40.4578,
                  "lng": -3.6896,
                  "is_trending_spot": true,
                  "cost": 1200.0,
                  "category": "restaurant",
                  "description": "Madrid's only three-Michelin-starred restaurant, offering an avant-garde, multi-sensory culinary journey with Asian, Mediterranean, and Latin influences.",
                  "social_buzz": "Trending for its visionary Chef Dabiz Muñoz, 'flying pigs cuisine,' and a playful, dreamlike setting where each dish is a surprise designed to evoke emotion and wonder.",
                  "rating": 4.7,
                  "price_range": "$$$$",
                  "tags": [
                    "Michelin",
                    "fine dining",
                    "avant-garde",
                    "tasting menu",
                    "Asian fusion"
                  ],
                  "source": "Google Search, TheFork, YouTube",
                  "booking_url": "https://www.google.com/search?q=DiverXO+Madrid+tickets+booking"
                },
                {
                  "name": "Historical palaces walking tour",
                  "lat": 40.3852828929582,
                  "lng": -3.7425770663307194
                },
                {
                  "name": "Rooftop café",
                  "lat": 40.3863260250815,
                  "lng": -3.6690372396012445
                },
                {
                  "name": "City center landmark walk",
                  "lat": 40.4733218113436,
                  "lng": -3.630171608405525
                }
              ],
              "2": [
                {
                  "id": "trend_5_teatro_kap",
                  "name": "🔥 TRENDING: Teatro Kapital",
                  "lat": 40.4068,
                  "lng": -3.6946,
                  "is_trending_spot": true,
                  "cost": 140.0,
                  "category": "nightlife",
                  "description": "An iconic 7-floor mega-club in Madrid, renowned for its diverse music genres on each floor, excellent aesthetics, and attracting a huge international crowd.",
                  "social_buzz": "Considered the 'most emblematic and biggest spot for Madrid nightlife,' offering 'something for everyone' across its multiple levels, making it a must for a Madrilenian night.",
                  "rating": 4.0,
                  "price_range": "$$$",
                  "tags": [
                    "nightclub",
                    "party",
                    "music",
                    "international crowd",
                    "multi-level"
                  ],
                  "source": "Latroupe, Cats Hostel, Visitor Guide",
                  "booking_url": "https://www.google.com/search?q=Teatro+Kapital+Madrid+tickets+booking"
                },
                {
                  "id": "trend_1_sobrino_de",
                  "name": "🔥 TRENDING: Sobrino de Botín",
                  "lat": 40.4149,
                  "lng": -3.7072,
                  "is_trending_spot": true,
                  "cost": 220.0,
                  "category": "restaurant",
                  "description": "The world's oldest restaurant, established in 1725, famous for its traditional Castilian cuisine, especially cochinillo asado (roast suckling pig) cooked in an original wood oven.",
                  "social_buzz": "A 'living museum of Spanish gastronomy' that has been featured in literature and remains a celebrity favorite, offering a timeless setting to immerse in Madrid's culinary heritage.",
                  "rating": 4.4,
                  "price_range": "$$$",
                  "tags": [
                    "traditional Spanish",
                    "historic",
                    "Castilian",
                    "cochinillo asado",
                    "Guinness World Record"
                  ],
                  "source": "Google Search, GetYourGuide, Whattodo",
                  "booking_url": "https://www.google.com/search?q=Sobrino+de+Bot%C3%ADn+Madrid+tickets+booking"
                },
                {
                  "name": "Local souq haggling",
                  "lat": 40.49082181480089,
                  "lng": -3.6705882825107583
                },
                {
                  "name": "Retiro Park",
                  "lat": 40.415,
                  "lng": -3.68389
                },
                {
                  "name": "Mall exploration",
                  "lat": 40.44824286324737,
                  "lng": -3.671949603400293
                }
              ],
              "3": [
                {
                  "id": "trend_6_\"emociones",
                  "name": "🔥 TRENDING: \"Emociones\" Live Flamenco Performance at Teatro Flamenco Madrid",
                  "lat": 40.4239,
                  "lng": -3.7042,
                  "is_trending_spot": true,
                  "cost": 180.0,
                  "category": "unique experience",
                  "description": "An intimate and welcoming flamenco show dedicated to the art form in its purest expression, offering an unfiltered and emotional artistic experience.",
                  "social_buzz": "Described as 'captivating' and the 'best experience' by recent visitors, highlighting the intense emotions and passion conveyed by the dancers.",
                  "rating": 5.0,
                  "price_range": "$$$",
                  "tags": [
                    "flamenco",
                    "live show",
                    "culture",
                    "Spanish tradition",
                    "performance"
                  ],
                  "source": "Viator, GetYourGuide",
                  "booking_url": "https://www.google.com/search?q=%22Emociones%22+Live+Flamenco+Performance+at+Teatro+Flamenco+Madrid+Madrid+tickets+booking"
                },
                {
                  "id": "trend_2_hola_coffe",
                  "name": "🔥 TRENDING: Hola Coffee Lagasca",
                  "lat": 40.4262,
                  "lng": -3.6847,
                  "is_trending_spot": true,
                  "cost": 40.0,
                  "category": "cafe",
                  "description": "A top-ranked specialty coffee shop and independent roaster, offering a polished all-round café experience with strong espresso and verifiable local credibility.",
                  "social_buzz": "Leads 2026 rankings for the 'best overall specialty coffee experience' in Madrid, known for its local roasting and flagship-level consistency.",
                  "rating": 4.6,
                  "price_range": "$$",
                  "tags": [
                    "specialty coffee",
                    "local roaster",
                    "cafe",
                    "brunch",
                    "Malasaña"
                  ],
                  "source": "FeedSpot, Things Nomads Do, Sloly Travel",
                  "booking_url": "https://www.google.com/search?q=Hola+Coffee+Lagasca+Madrid+tickets+booking"
                },
                {
                  "name": "La Latina (neighborhood)",
                  "lat": 40.411279,
                  "lng": -3.7081611
                },
                {
                  "name": "Prado Museum",
                  "lat": 40.41378,
                  "lng": -3.692127
                },
                {
                  "name": "Royal Palace of Madrid",
                  "lat": 40.417953,
                  "lng": -3.714312
                }
              ],
              "4": [
                {
                  "id": "trend_7_mercado_de",
                  "name": "🔥 TRENDING: Mercado de San Miguel",
                  "lat": 40.4154,
                  "lng": -3.7077,
                  "is_trending_spot": true,
                  "cost": 80.0,
                  "category": "unique experience",
                  "description": "A historic gourmet market near Plaza Mayor, offering a wide array of high-quality Spanish tapas, fresh produce, and drinks in a vibrant and bustling atmosphere.",
                  "social_buzz": "Known as a 'tapas heaven for travelers' and a 'perfect place to indulge' in the diverse flavors of Spanish cuisine, attracting a huge number of tourists.",
                  "rating": 4.3,
                  "price_range": "$$",
                  "tags": [
                    "food market",
                    "tapas",
                    "gourmet",
                    "local food",
                    "historic"
                  ],
                  "source": "Viator, Whattodo, Civitatis",
                  "booking_url": "https://www.google.com/search?q=Mercado+de+San+Miguel+Madrid+tickets+booking"
                },
                {
                  "id": "trend_3_royal_pala",
                  "name": "🔥 TRENDING: Royal Palace of Madrid",
                  "lat": 40.4179,
                  "lng": -3.7143,
                  "is_trending_spot": true,
                  "cost": 56.0,
                  "category": "attraction",
                  "description": "The official residence of the Spanish Royal Family, the largest palace in Western Europe, offering tours of lavish rooms, an impressive armory, and stunning Sabatini Gardens.",
                  "social_buzz": "Consistently a top attraction for its rich history and grandeur, considered a 'must-see' for first-timers in Madrid.",
                  "rating": 4.5,
                  "price_range": "$$",
                  "tags": [
                    "historic site",
                    "palace",
                    "museum",
                    "architecture",
                    "royal family"
                  ],
                  "source": "Viator, GetYourGuide, Tickadoo, Whattodo, Civitatis",
                  "booking_url": "https://www.google.com/search?q=Royal+Palace+of+Madrid+Madrid+tickets+booking"
                },
                {
                  "name": "Plaza Mayor",
                  "lat": 40.415524,
                  "lng": -3.707488
                },
                {
                  "name": "Gran Vía",
                  "lat": 40.420177,
                  "lng": -3.703928
                },
                {
                  "name": "Mercado de San Miguel",
                  "lat": 40.41536,
                  "lng": -3.70901
                }
              ]
            },
            "hotel": {
              "name": "Hotel Riu Plaza España",
              "lat": 40.42417,
              "lng": -3.71194
            }
          },
          "events": {
            "city": "Madrid",
            "start_date": "2026-05-09",
            "end_date": "2026-05-12",
            "events": [],
            "total_event_cost": 0,
            "scan_source": "file_cache"
          },
          "web_research": {
            "city": "Madrid",
            "research_date": "2026-05-08",
            "social_posts": [
              {
                "platform": "blog",
                "author": "Everyday Abroad",
                "content": "A local's guide to Madrid, covering best neighborhoods like Chueca/Malasaña and Las Letras, authentic dining spots such as Taberna el Sur de Huertas and La Chispera, and unique experiences like flamenco shows at La Cueva de Lola.",
                "category": "tip",
                "relevance_score": 0.95,
                "url": "https://everydayabroad.com/madrid-travel-guide-local-2026/",
                "likes": 0,
                "posted_date": "February 01 2026"
              },
              {
                "platform": "blog",
                "author": "Jim Ferri (NeverStopTraveling)",
                "content": "Highlights Madrid's hidden gems and unique experiences, including Mercado San Miguel for gourmet food, shopping and dining in Barrio Salamanca with a mention of Sula Restaurant, and the little-known Museo Cerralbo.",
                "category": "hidden_gem",
                "relevance_score": 0.9,
                "url": "https://neverstoptraveling.com/madrid-hidden-gems/",
                "likes": 0,
                "posted_date": "February 12 2026"
              },
              {
                "platform": "blog",
                "author": "Unearthing Asia (Will Fly for Food)",
                "content": "Recommends 14 restaurants, bars, and markets in Madrid, highlighting traditional Spanish food and unique dining experiences. Mentions iconic spots like Chocolateria San Gines for churros con chocolate and La Venencia for sherry wine.",
                "category": "restaurant",
                "relevance_score": 0.92,
                "url": "https://www.unearthingasia.com/madrid-restaurants-youll-want-to-fly-for/",
                "likes": 0,
                "posted_date": "December 06 2025"
              },
              {
                "platform": "blog",
                "author": "NALBATRAVELS",
                "content": "A local's ultimate guide to Madrid for 2026, featuring best neighborhoods to stay, must-see highlights like the Royal Palace, local food spots such as Elu/Lua for traditional Spanish dishes, and trendy rooftop bars.",
                "category": "tip",
                "relevance_score": 0.93,
                "url": "https://www.youtube.com/watch?v=Uq2TQAgBucc",
                "likes": 0,
                "posted_date": "November 15 2025"
              },
              {
                "platform": "blog",
                "author": "INNspiring travels",
                "content": "Features 15 fun and unique restaurants in Madrid, recommended by a local, including Mateo Honten for Japanese cuisine, Red Dragon Hot Pot, and Sala de Despiece for upscale tapas in a lively, innovative setting.",
                "category": "restaurant",
                "relevance_score": 0.94,
                "url": "https://innspiringtravels.com/fun-restaurants-madrid/",
                "likes": 0,
                "posted_date": "February 10 2026"
              },
              {
                "platform": "blog",
                "author": "Gastroescaperoom",
                "content": "Showcases 10 cool and unique restaurants in Madrid, offering concept-driven dining experiences such as Gastroescaperoom (escape room restaurant), El Café de la Ópera (opera dinners), and Sinestesia Restaurant (multisensory journey).",
                "category": "unique_experience",
                "relevance_score": 0.91,
                "url": "https://gastroescaperoom.com/cool-restaurants-madrid/",
                "likes": 0,
                "posted_date": "June 05 2025"
              },
              {
                "platform": "blog",
                "author": "ענבל כבירי",
                "content": "Recommends 20 unique attractions in Madrid, including Carrer Cava Baja for a lively tapas street and highlights the atmosphere of La Latina neighborhood. It also mentions San Miguel Market but advises vegetarians or those seeking authentic food to consider other options.",
                "category": "attraction",
                "relevance_score": 0.88,
                "url": "https://inbalcabiri.com/what-to-do-in-madrid-20-unique-attractions-for-2026/",
                "likes": 0,
                "posted_date": "March 24 2025"
              },
              {
                "platform": "blog",
                "author": "50Best Discovery",
                "content": "A curated list of top restaurants and bars in Madrid for 2026, featuring sophisticated cocktail bars like 1862 Dry Bar, and renowned restaurants such as Amazónico and Coque, offering diverse culinary experiences.",
                "category": "restaurant",
                "relevance_score": 0.89,
                "url": "https://www.theworlds50best.com/discovery/madrid/",
                "likes": 0,
                "posted_date": "2026"
              }
            ],
            "trending_spots": [
              {
                "name": "DiverXO",
                "category": "restaurant",
                "description": "Madrid's only three-Michelin-starred restaurant, offering an avant-garde, multi-sensory culinary journey with Asian, Mediterranean, and Latin influences.",
                "price_range": "$$$$",
                "estimated_cost_sar": 1200.0,
                "rating": 4.7,
                "source": "Google Search, TheFork, YouTube",
                "lat": 40.4578,
                "lng": -3.6896,
                "social_buzz": "Trending for its visionary Chef Dabiz Muñoz, 'flying pigs cuisine,' and a playful, dreamlike setting where each dish is a surprise designed to evoke emotion and wonder.",
                "tags": [
                  "Michelin",
                  "fine dining",
                  "avant-garde",
                  "tasting menu",
                  "Asian fusion"
                ]
              },
              {
                "name": "Sobrino de Botín",
                "category": "restaurant",
                "description": "The world's oldest restaurant, established in 1725, famous for its traditional Castilian cuisine, especially cochinillo asado (roast suckling pig) cooked in an original wood oven.",
                "price_range": "$$$",
                "estimated_cost_sar": 220.0,
                "rating": 4.4,
                "source": "Google Search, GetYourGuide, Whattodo",
                "lat": 40.4149,
                "lng": -3.7072,
                "social_buzz": "A 'living museum of Spanish gastronomy' that has been featured in literature and remains a celebrity favorite, offering a timeless setting to immerse in Madrid's culinary heritage.",
                "tags": [
                  "traditional Spanish",
                  "historic",
                  "Castilian",
                  "cochinillo asado",
                  "Guinness World Record"
                ]
              },
              {
                "name": "Hola Coffee Lagasca",
                "category": "cafe",
                "description": "A top-ranked specialty coffee shop and independent roaster, offering a polished all-round café experience with strong espresso and verifiable local credibility.",
                "price_range": "$$",
                "estimated_cost_sar": 40.0,
                "rating": 4.6,
                "source": "FeedSpot, Things Nomads Do, Sloly Travel",
                "lat": 40.4262,
                "lng": -3.6847,
                "social_buzz": "Leads 2026 rankings for the 'best overall specialty coffee experience' in Madrid, known for its local roasting and flagship-level consistency.",
                "tags": [
                  "specialty coffee",
                  "local roaster",
                  "cafe",
                  "brunch",
                  "Malasaña"
                ]
              },
              {
                "name": "Royal Palace of Madrid",
                "category": "attraction",
                "description": "The official residence of the Spanish Royal Family, the largest palace in Western Europe, offering tours of lavish rooms, an impressive armory, and stunning Sabatini Gardens.",
                "price_range": "$$",
                "estimated_cost_sar": 56.0,
                "rating": 4.5,
                "source": "Viator, GetYourGuide, Tickadoo, Whattodo, Civitatis",
                "lat": 40.4179,
                "lng": -3.7143,
                "social_buzz": "Consistently a top attraction for its rich history and grandeur, considered a 'must-see' for first-timers in Madrid.",
                "tags": [
                  "historic site",
                  "palace",
                  "museum",
                  "architecture",
                  "royal family"
                ]
              },
              {
                "name": "El Retiro Park",
                "category": "attraction",
                "description": "Madrid's green oasis and a UNESCO World Heritage Cultural Landscape, featuring beautiful gardens, the iconic Crystal Palace, a peaceful boating lake, and various cultural events.",
                "price_range": "$",
                "estimated_cost_sar": 20.0,
                "rating": 4.7,
                "source": "GetYourGuide, Unique Things to Do, Whattodo, Civitatis",
                "lat": 40.419,
                "lng": -3.6849,
                "social_buzz": "A popular destination for locals and tourists to relax and stroll, especially vibrant in May with events like the Madrid Book Fair and San Isidro festivities.",
                "tags": [
                  "park",
                  "nature",
                  "relaxation",
                  "gardens",
                  "Crystal Palace"
                ]
              },
              {
                "name": "Teatro Kapital",
                "category": "nightlife",
                "description": "An iconic 7-floor mega-club in Madrid, renowned for its diverse music genres on each floor, excellent aesthetics, and attracting a huge international crowd.",
                "price_range": "$$$",
                "estimated_cost_sar": 140.0,
                "rating": 4.0,
                "source": "Latroupe, Cats Hostel, Visitor Guide",
                "lat": 40.4068,
                "lng": -3.6946,
                "social_buzz": "Considered the 'most emblematic and biggest spot for Madrid nightlife,' offering 'something for everyone' across its multiple levels, making it a must for a Madrilenian night.",
                "tags": [
                  "nightclub",
                  "party",
                  "music",
                  "international crowd",
                  "multi-level"
                ]
              },
              {
                "name": "\"Emociones\" Live Flamenco Performance at Teatro Flamenco Madrid",
                "category": "unique experience",
                "description": "An intimate and welcoming flamenco show dedicated to the art form in its purest expression, offering an unfiltered and emotional artistic experience.",
                "price_range": "$$$",
                "estimated_cost_sar": 180.0,
                "rating": 5.0,
                "source": "Viator, GetYourGuide",
                "lat": 40.4239,
                "lng": -3.7042,
                "social_buzz": "Described as 'captivating' and the 'best experience' by recent visitors, highlighting the intense emotions and passion conveyed by the dancers.",
                "tags": [
                  "flamenco",
                  "live show",
                  "culture",
                  "Spanish tradition",
                  "performance"
                ]
              },
              {
                "name": "Mercado de San Miguel",
                "category": "unique experience",
                "description": "A historic gourmet market near Plaza Mayor, offering a wide array of high-quality Spanish tapas, fresh produce, and drinks in a vibrant and bustling atmosphere.",
                "price_range": "$$",
                "estimated_cost_sar": 80.0,
                "rating": 4.3,
                "source": "Viator, Whattodo, Civitatis",
                "lat": 40.4154,
                "lng": -3.7077,
                "social_buzz": "Known as a 'tapas heaven for travelers' and a 'perfect place to indulge' in the diverse flavors of Spanish cuisine, attracting a huge number of tourists.",
                "tags": [
                  "food market",
                  "tapas",
                  "gourmet",
                  "local food",
                  "historic"
                ]
              }
            ],
            "local_insights": [
              {
                "tip": "Pack layers of clothing, including a light jacket or sweater for cooler evenings, and bring an umbrella or light rain jacket due to potential rainfall.",
                "category": "weather",
                "source": "Travel blogs, Weather forecasts",
                "confidence": "high"
              },
              {
                "tip": "Wear comfortable walking shoes as Madrid is a very walkable city with many cobblestone streets and uneven sidewalks.",
                "category": "weather",
                "source": "Travel blogs, TripAdvisor forums",
                "confidence": "high"
              },
              {
                "tip": "Dress smart casual, especially in the evenings, as locals tend to dress well; avoid wearing shorts and flip-flops outside of the summer months if you want to blend in.",
                "category": "weather",
                "source": "Travel blogs, Viator",
                "confidence": "high"
              },
              {
                "tip": "Utilize Madrid's efficient public transport system (metro or bus) from the airport instead of a taxi to save money.",
                "category": "money_saving",
                "source": "Lonely Planet, Travel blogs",
                "confidence": "high"
              },
              {
                "tip": "Purchase a Tarjeta Multi and load a 10-trip Metrobús ticket (currently €6.10, rising to €7.30 from June 1st) which can be shared among multiple people for cost-effective travel on the metro and buses.",
                "category": "money_saving",
                "source": "Reddit, Klook Travel Blog, Lonely Planet",
                "confidence": "high"
              },
              {
                "tip": "Take advantage of free admission hours or days at many museums, such as the Prado Museum, and visit free attractions like Retiro Park.",
                "category": "money_saving",
                "source": "Travel blogs, Lonely Planet",
                "confidence": "high"
              },
              {
                "tip": "Eat where locals eat and avoid overpriced, bland food in tourist hotspots like Plaza Mayor; hotel breakfasts can also be expensive.",
                "category": "money_saving",
                "source": "Travel blogs, Viator",
                "confidence": "high"
              },
              {
                "tip": "Enjoy the tapas culture, as many bars serve a small plate of food with your drink, offering a budget-friendly way to snack and socialize.",
                "category": "money_saving",
                "source": "Travel blogs, Tripoto",
                "confidence": "high"
              }
            ],
            "weather_summary": "Madrid in May 2026 is expected to have comfortable daytime temperatures ranging from 53-77°F (12-27°C) with cooler nights, and a chance of 3-11 rainy days throughout the month.",
            "scan_successful": true
          },
          "dates": {
            "start_date": "2026-05-09",
            "end_date": "2026-05-12"
          },
          "map": {
            "origin": {
              "lat": 24.7136,
              "lng": 46.6753
            },
            "destination": {
              "lat": 40.4168,
              "lng": -3.7038
            },
            "origin_name": "Riyadh",
            "dest_name": "Madrid"
          },
          "hospitality": {
            "hotels": [
              {
                "id": "Senator Barajas",
                "name": "Senator Barajas",
                "city": "Madrid",
                "stars": 4,
                "rating": 3.5,
                "description": "A good value hotel, especially convenient for airport access.",
                "rooms": [
                  {
                    "room_type": "Standard",
                    "base_price_sar": 375.0,
                    "final_price_sar": 375.0,
                    "available": true,
                    "source": "Gemini Search"
                  },
                  {
                    "room_type": "Deluxe",
                    "base_price_sar": 525.0,
                    "final_price_sar": 525.0,
                    "available": true,
                    "source": "Gemini Search"
                  }
                ],
                "amenities": [
                  "WiFi",
                  "Parking",
                  "Air Conditioning",
                  "Room Service"
                ],
                "check_in": "14:00",
                "check_out": "12:00",
                "lat": 40.4058211112038,
                "lng": -3.657342426181937,
                "has_availability": true,
                "live_price_sar": 375.0,
                "price_source": "Gemini Search",
                "almosafer_url": "https://www.almosafer.com/en/hotels/Madrid/15-05-2026/18-05-2026/2_adult",
                "best_deal": {
                  "room_type": "Standard",
                  "base_price_sar": 375.0,
                  "final_price_sar": 375.0,
                  "discount_percent": 0
                },
                "vibe": "",
                "booking_url": "https://www.booking.com/searchresults.html?ss=Senator+Barajas+Madrid&checkin=2026-05-09&checkout=2026-05-12&group_adults=1&group_children=0&no_rooms=1"
              },
              {
                "id": "NH Madrid Las Tablas",
                "name": "NH Madrid Las Tablas",
                "city": "Madrid",
                "stars": 4,
                "rating": 3.5,
                "description": "A best-value hotel in Madrid.",
                "rooms": [
                  {
                    "room_type": "Standard",
                    "base_price_sar": 375.0,
                    "final_price_sar": 375.0,
                    "available": true,
                    "source": "Gemini Search"
                  },
                  {
                    "room_type": "Deluxe",
                    "base_price_sar": 525.0,
                    "final_price_sar": 525.0,
                    "available": true,
                    "source": "Gemini Search"
                  }
                ],
                "amenities": [
                  "WiFi",
                  "Parking",
                  "Air Conditioning",
                  "Room Service"
                ],
                "check_in": "14:00",
                "check_out": "12:00",
                "lat": 40.37358837003127,
                "lng": -3.697985726007843,
                "has_availability": true,
                "live_price_sar": 375.0,
                "price_source": "Gemini Search",
                "almosafer_url": "https://www.almosafer.com/en/hotels/Madrid/15-05-2026/18-05-2026/2_adult",
                "best_deal": {
                  "room_type": "Standard",
                  "base_price_sar": 375.0,
                  "final_price_sar": 375.0,
                  "discount_percent": 0
                },
                "vibe": "",
                "booking_url": "https://www.booking.com/searchresults.html?ss=NH+Madrid+Las+Tablas+Madrid&checkin=2026-05-09&checkout=2026-05-12&group_adults=1&group_children=0&no_rooms=1"
              },
              {
                "id": "B&B Hotel Madrid Aer",
                "name": "B&B Hotel Madrid Aeropuerto T1 T2 T3",
                "city": "Madrid",
                "stars": 4,
                "rating": 3.5,
                "description": "A popular and affordable hotel near Madrid's airport terminals.",
                "rooms": [
                  {
                    "room_type": "Standard",
                    "base_price_sar": 274.0,
                    "final_price_sar": 274.0,
                    "available": true,
                    "source": "Gemini Search"
                  },
                  {
                    "room_type": "Deluxe",
                    "base_price_sar": 383.6,
                    "final_price_sar": 383.6,
                    "available": true,
                    "source": "Gemini Search"
                  }
                ],
                "amenities": [
                  "WiFi",
                  "Parking",
                  "Air Conditioning",
                  "Room Service"
                ],
                "check_in": "14:00",
                "check_out": "12:00",
                "lat": 40.41876133130646,
                "lng": -3.714749807039111,
                "has_availability": true,
                "live_price_sar": 274.0,
                "price_source": "Gemini Search",
                "almosafer_url": "https://www.almosafer.com/en/hotels/Madrid/15-05-2026/18-05-2026/2_adult",
                "best_deal": {
                  "room_type": "Standard",
                  "base_price_sar": 274.0,
                  "final_price_sar": 274.0,
                  "discount_percent": 0
                },
                "vibe": "",
                "booking_url": "https://www.booking.com/searchresults.html?ss=B%26B+Hotel+Madrid+Aeropuerto+T1+T2+T3+Madrid&checkin=2026-05-09&checkout=2026-05-12&group_adults=1&group_children=0&no_rooms=1"
              },
              {
                "id": "Hostal Aravaca",
                "name": "Hostal Aravaca",
                "city": "Madrid",
                "stars": 4,
                "rating": 3.5,
                "description": "A best-value budget hotel in Madrid.",
                "rooms": [
                  {
                    "room_type": "Standard",
                    "base_price_sar": 165.0,
                    "final_price_sar": 165.0,
                    "available": true,
                    "source": "Gemini Search"
                  },
                  {
                    "room_type": "Deluxe",
                    "base_price_sar": 231.0,
                    "final_price_sar": 231.0,
                    "available": true,
                    "source": "Gemini Search"
                  }
                ],
                "amenities": [
                  "WiFi",
                  "Parking",
                  "Air Conditioning",
                  "Room Service"
                ],
                "check_in": "14:00",
                "check_out": "12:00",
                "lat": 40.3799383289231,
                "lng": -3.7388818405148863,
                "has_availability": true,
                "live_price_sar": 165.0,
                "price_source": "Gemini Search",
                "almosafer_url": "https://www.almosafer.com/en/hotels/Madrid/15-05-2026/18-05-2026/2_adult",
                "best_deal": {
                  "room_type": "Standard",
                  "base_price_sar": 165.0,
                  "final_price_sar": 165.0,
                  "discount_percent": 0
                },
                "vibe": "",
                "booking_url": "https://www.booking.com/searchresults.html?ss=Hostal+Aravaca+Madrid&checkin=2026-05-09&checkout=2026-05-12&group_adults=1&group_children=0&no_rooms=1"
              },
              {
                "id": "Aravaca Garden",
                "name": "Aravaca Garden",
                "city": "Madrid",
                "stars": 4,
                "rating": 3.5,
                "description": "A best-value budget hotel in Madrid.",
                "rooms": [
                  {
                    "room_type": "Standard",
                    "base_price_sar": 176.0,
                    "final_price_sar": 176.0,
                    "available": true,
                    "source": "Gemini Search"
                  },
                  {
                    "room_type": "Deluxe",
                    "base_price_sar": 246.4,
                    "final_price_sar": 246.4,
                    "available": true,
                    "source": "Gemini Search"
                  }
                ],
                "amenities": [
                  "WiFi",
                  "Parking",
                  "Air Conditioning",
                  "Room Service"
                ],
                "check_in": "14:00",
                "check_out": "12:00",
                "lat": 40.37261761685791,
                "lng": -3.7216356862480686,
                "has_availability": true,
                "live_price_sar": 176.0,
                "price_source": "Gemini Search",
                "almosafer_url": "https://www.almosafer.com/en/hotels/Madrid/15-05-2026/18-05-2026/2_adult",
                "best_deal": {
                  "room_type": "Standard",
                  "base_price_sar": 176.0,
                  "final_price_sar": 176.0,
                  "discount_percent": 0
                },
                "vibe": "",
                "booking_url": "https://www.booking.com/searchresults.html?ss=Aravaca+Garden+Madrid&checkin=2026-05-09&checkout=2026-05-12&group_adults=1&group_children=0&no_rooms=1"
              }
            ],
            "restaurants": [
              {
                "id": "385",
                "name": "Casa Lucio",
                "city": "madrid",
                "vibe": "",
                "cuisine": null,
                "rating": 4.3,
                "operating_hours": {
                  "open": "12:00",
                  "close": "23:00"
                },
                "total_tables": 20,
                "reserved_tables": 5,
                "available_tables": 15,
                "discount_percent": 20.0,
                "menu": [
                  {
                    "name": "Traditional Kabsa",
                    "price_sar": 320.0,
                    "category": "Main",
                    "is_signature": true,
                    "allergens": [],
                    "dietary": [],
                    "is_safe": true,
                    "flagged_allergens": []
                  },
                  {
                    "name": "Lentil Soup",
                    "price_sar": 96.0,
                    "category": "Starter",
                    "is_signature": false,
                    "allergens": [],
                    "dietary": [],
                    "is_safe": true,
                    "flagged_allergens": []
                  },
                  {
                    "name": "Date Cake",
                    "price_sar": 128.0,
                    "category": "Dessert",
                    "is_signature": false,
                    "allergens": [],
                    "dietary": [],
                    "is_safe": true,
                    "flagged_allergens": []
                  }
                ],
                "top_dishes": [
                  "Traditional Kabsa"
                ],
                "lat": 40.37825570061925,
                "lng": -3.703936167070433,
                "almosafer_url": "https://www.google.com/search?q=Casa+Lucio+madrid+reservation",
                "booking_url": "https://www.google.com/search?q=Casa+Lucio+madrid+reservation"
              },
              {
                "id": "387",
                "name": "El Rincón de Jaén",
                "city": "madrid",
                "vibe": "",
                "cuisine": null,
                "rating": 4.0,
                "operating_hours": {
                  "open": "12:00",
                  "close": "23:00"
                },
                "total_tables": 20,
                "reserved_tables": 9,
                "available_tables": 11,
                "discount_percent": 12.0,
                "menu": [
                  {
                    "name": "Traditional Kabsa",
                    "price_sar": 160.0,
                    "category": "Main",
                    "is_signature": true,
                    "allergens": [],
                    "dietary": [],
                    "is_safe": true,
                    "flagged_allergens": []
                  },
                  {
                    "name": "Lentil Soup",
                    "price_sar": 48.0,
                    "category": "Starter",
                    "is_signature": false,
                    "allergens": [],
                    "dietary": [],
                    "is_safe": true,
                    "flagged_allergens": []
                  },
                  {
                    "name": "Date Cake",
                    "price_sar": 64.0,
                    "category": "Dessert",
                    "is_signature": false,
                    "allergens": [],
                    "dietary": [],
                    "is_safe": true,
                    "flagged_allergens": []
                  }
                ],
                "top_dishes": [
                  "Traditional Kabsa"
                ],
                "lat": 40.44308171073624,
                "lng": -3.7217917470906228,
                "almosafer_url": "https://www.google.com/search?q=El+Rinc%C3%B3n+de+Ja%C3%A9n+madrid+reservation",
                "booking_url": "https://www.google.com/search?q=El+Rinc%C3%B3n+de+Ja%C3%A9n+madrid+reservation"
              },
              {
                "id": "388",
                "name": "Entre Cáceres y Badajoz",
                "city": "madrid",
                "vibe": "",
                "cuisine": null,
                "rating": 4.0,
                "operating_hours": {
                  "open": "12:00",
                  "close": "23:00"
                },
                "total_tables": 20,
                "reserved_tables": 10,
                "available_tables": 10,
                "discount_percent": 12.0,
                "menu": [
                  {
                    "name": "Traditional Kabsa",
                    "price_sar": 110.0,
                    "category": "Main",
                    "is_signature": true,
                    "allergens": [],
                    "dietary": [],
                    "is_safe": true,
                    "flagged_allergens": []
                  },
                  {
                    "name": "Lentil Soup",
                    "price_sar": 33.0,
                    "category": "Starter",
                    "is_signature": false,
                    "allergens": [],
                    "dietary": [],
                    "is_safe": true,
                    "flagged_allergens": []
                  },
                  {
                    "name": "Date Cake",
                    "price_sar": 44.0,
                    "category": "Dessert",
                    "is_signature": false,
                    "allergens": [],
                    "dietary": [],
                    "is_safe": true,
                    "flagged_allergens": []
                  }
                ],
                "top_dishes": [
                  "Traditional Kabsa"
                ],
                "lat": 40.45366676503471,
                "lng": -3.7019687218120394,
                "almosafer_url": "https://www.google.com/search?q=Entre+C%C3%A1ceres+y+Badajoz+madrid+reservation",
                "booking_url": "https://www.google.com/search?q=Entre+C%C3%A1ceres+y+Badajoz+madrid+reservation"
              },
              {
                "id": "386",
                "name": "La Bola Taberna",
                "city": "madrid",
                "vibe": "",
                "cuisine": null,
                "rating": 4.2,
                "operating_hours": {
                  "open": "12:00",
                  "close": "23:00"
                },
                "total_tables": 20,
                "reserved_tables": 12,
                "available_tables": 8,
                "discount_percent": 7.0,
                "menu": [
                  {
                    "name": "Traditional Kabsa",
                    "price_sar": 150.0,
                    "category": "Main",
                    "is_signature": true,
                    "allergens": [],
                    "dietary": [],
                    "is_safe": true,
                    "flagged_allergens": []
                  },
                  {
                    "name": "Lentil Soup",
                    "price_sar": 45.0,
                    "category": "Starter",
                    "is_signature": false,
                    "allergens": [],
                    "dietary": [],
                    "is_safe": true,
                    "flagged_allergens": []
                  },
                  {
                    "name": "Date Cake",
                    "price_sar": 60.0,
                    "category": "Dessert",
                    "is_signature": false,
                    "allergens": [],
                    "dietary": [],
                    "is_safe": true,
                    "flagged_allergens": []
                  }
                ],
                "top_dishes": [
                  "Traditional Kabsa"
                ],
                "lat": 40.45120138871918,
                "lng": -3.7398838123495475,
                "almosafer_url": "https://www.google.com/search?q=La+Bola+Taberna+madrid+reservation",
                "booking_url": "https://www.google.com/search?q=La+Bola+Taberna+madrid+reservation"
              },
              {
                "id": "384",
                "name": "Sobrino de Botín",
                "city": "madrid",
                "vibe": "",
                "cuisine": null,
                "rating": 4.5,
                "operating_hours": {
                  "open": "12:00",
                  "close": "23:00"
                },
                "total_tables": 20,
                "reserved_tables": 17,
                "available_tables": 3,
                "discount_percent": 0.0,
                "menu": [
                  {
                    "name": "Traditional Kabsa",
                    "price_sar": 320.0,
                    "category": "Main",
                    "is_signature": true,
                    "allergens": [],
                    "dietary": [],
                    "is_safe": true,
                    "flagged_allergens": []
                  },
                  {
                    "name": "Lentil Soup",
                    "price_sar": 96.0,
                    "category": "Starter",
                    "is_signature": false,
                    "allergens": [],
                    "dietary": [],
                    "is_safe": true,
                    "flagged_allergens": []
                  },
                  {
                    "name": "Date Cake",
                    "price_sar": 128.0,
                    "category": "Dessert",
                    "is_signature": false,
                    "allergens": [],
                    "dietary": [],
                    "is_safe": true,
                    "flagged_allergens": []
                  }
                ],
                "top_dishes": [
                  "Traditional Kabsa"
                ],
                "lat": 40.39781952110034,
                "lng": -3.697623659027954,
                "almosafer_url": "https://www.google.com/search?q=Sobrino+de+Bot%C3%ADn+madrid+reservation",
                "booking_url": "https://www.google.com/search?q=Sobrino+de+Bot%C3%ADn+madrid+reservation"
              },
              {
                "id": "390",
                "name": "ALCHEMY Specialty Coffee",
                "city": "madrid",
                "vibe": "",
                "cuisine": null,
                "rating": 4.0,
                "operating_hours": {
                  "open": "12:00",
                  "close": "23:00"
                },
                "total_tables": 20,
                "reserved_tables": 11,
                "available_tables": 9,
                "discount_percent": 7.0,
                "menu": [
                  {
                    "name": "Traditional Kabsa",
                    "price_sar": 40.0,
                    "category": "Main",
                    "is_signature": true,
                    "allergens": [],
                    "dietary": [],
                    "is_safe": true,
                    "flagged_allergens": []
                  },
                  {
                    "name": "Lentil Soup",
                    "price_sar": 12.0,
                    "category": "Starter",
                    "is_signature": false,
                    "allergens": [],
                    "dietary": [],
                    "is_safe": true,
                    "flagged_allergens": []
                  },
                  {
                    "name": "Date Cake",
                    "price_sar": 16.0,
                    "category": "Dessert",
                    "is_signature": false,
                    "allergens": [],
                    "dietary": [],
                    "is_safe": true,
                    "flagged_allergens": []
                  }
                ],
                "top_dishes": [
                  "Traditional Kabsa"
                ],
                "lat": 40.46276782193742,
                "lng": -3.711764784449931,
                "almosafer_url": "https://www.google.com/search?q=ALCHEMY+Specialty+Coffee+madrid+reservation",
                "booking_url": "https://www.google.com/search?q=ALCHEMY+Specialty+Coffee+madrid+reservation"
              },
              {
                "id": "391",
                "name": "Naji Specialty Coffee",
                "city": "madrid",
                "vibe": "",
                "cuisine": null,
                "rating": 4.0,
                "operating_hours": {
                  "open": "12:00",
                  "close": "23:00"
                },
                "total_tables": 20,
                "reserved_tables": 9,
                "available_tables": 11,
                "discount_percent": 12.0,
                "menu": [
                  {
                    "name": "Traditional Kabsa",
                    "price_sar": 14.0,
                    "category": "Main",
                    "is_signature": true,
                    "allergens": [],
                    "dietary": [],
                    "is_safe": true,
                    "flagged_allergens": []
                  },
                  {
                    "name": "Lentil Soup",
                    "price_sar": 4.2,
                    "category": "Starter",
                    "is_signature": false,
                    "allergens": [],
                    "dietary": [],
                    "is_safe": true,
                    "flagged_allergens": []
                  },
                  {
                    "name": "Date Cake",
                    "price_sar": 5.6000000000000005,
                    "category": "Dessert",
                    "is_signature": false,
                    "allergens": [],
                    "dietary": [],
                    "is_safe": true,
                    "flagged_allergens": []
                  }
                ],
                "top_dishes": [
                  "Traditional Kabsa"
                ],
                "lat": 40.45512579165612,
                "lng": -3.6543584401277434,
                "almosafer_url": "https://www.google.com/search?q=Naji+Specialty+Coffee+madrid+reservation",
                "booking_url": "https://www.google.com/search?q=Naji+Specialty+Coffee+madrid+reservation"
              },
              {
                "id": "389",
                "name": "Pum Pum Cafe",
                "city": "madrid",
                "vibe": "",
                "cuisine": null,
                "rating": 4.0,
                "operating_hours": {
                  "open": "12:00",
                  "close": "23:00"
                },
                "total_tables": 20,
                "reserved_tables": 9,
                "available_tables": 11,
                "discount_percent": 12.0,
                "menu": [
                  {
                    "name": "Traditional Kabsa",
                    "price_sar": 48.0,
                    "category": "Main",
                    "is_signature": true,
                    "allergens": [],
                    "dietary": [],
                    "is_safe": true,
                    "flagged_allergens": []
                  },
                  {
                    "name": "Lentil Soup",
                    "price_sar": 14.399999999999999,
                    "category": "Starter",
                    "is_signature": false,
                    "allergens": [],
                    "dietary": [],
                    "is_safe": true,
                    "flagged_allergens": []
                  },
                  {
                    "name": "Date Cake",
                    "price_sar": 19.200000000000003,
                    "category": "Dessert",
                    "is_signature": false,
                    "allergens": [],
                    "dietary": [],
                    "is_safe": true,
                    "flagged_allergens": []
                  }
                ],
                "top_dishes": [
                  "Traditional Kabsa"
                ],
                "lat": 40.404718686030805,
                "lng": -3.7441879902675304,
                "almosafer_url": "https://www.google.com/search?q=Pum+Pum+Cafe+madrid+reservation",
                "booking_url": "https://www.google.com/search?q=Pum+Pum+Cafe+madrid+reservation"
              }
            ],
            "travel_costs": {
              "status": "success",
              "flights": [
                {
                  "airline": "Multiple Airlines",
                  "price_sar": 817.5,
                  "duration": "2090m",
                  "source": "gemini_grounding"
                }
              ],
              "origin": "riyadh",
              "destination": "Madrid",
              "travel_mode": "flight"
            }
          },
          "timeline": {
            "1": {
              "legs": [
                {
                  "from_name": "Riyadh",
                  "from_lat": 24.7136,
                  "from_lng": 46.6753,
                  "to_name": "Senator Barajas",
                  "to_lat": 40.4058211112038,
                  "to_lng": -3.657342426181937,
                  "mode": "✈️ Long-haul",
                  "dist": 0,
                  "time_minutes": 120,
                  "cost": 0.0,
                  "type": "inter_city"
                },
                {
                  "from_name": "Senator Barajas",
                  "from_lat": 40.4058211112038,
                  "from_lng": -3.657342426181937,
                  "to_name": "🔥 TRENDING: El Retiro Park",
                  "to_lat": 40.419,
                  "to_lng": -3.6849,
                  "mode": "🚕 Taxi",
                  "dist": 2.76,
                  "time_minutes": 3,
                  "cost": 16.89
                },
                {
                  "from_name": "🔥 TRENDING: El Retiro Park",
                  "from_lat": 40.419,
                  "from_lng": -3.6849,
                  "to_name": "🔥 TRENDING: DiverXO",
                  "to_lat": 40.4578,
                  "to_lng": -3.6896,
                  "mode": "🚌 Public Transport",
                  "dist": 4.33,
                  "time_minutes": 7,
                  "cost": 8.25
                },
                {
                  "from_name": "🔥 TRENDING: DiverXO",
                  "from_lat": 40.4578,
                  "from_lng": -3.6896,
                  "to_name": "Historical palaces walking tour",
                  "to_lat": 40.3852828929582,
                  "to_lng": -3.7425770663307194,
                  "mode": "🚌 Public Transport",
                  "dist": 9.23,
                  "time_minutes": 16,
                  "cost": 11.92
                },
                {
                  "from_name": "Historical palaces walking tour",
                  "from_lat": 40.3852828929582,
                  "from_lng": -3.7425770663307194,
                  "to_name": "Rooftop café",
                  "to_lat": 40.3863260250815,
                  "to_lng": -3.6690372396012445,
                  "mode": "🚌 Public Transport",
                  "dist": 6.23,
                  "time_minutes": 11,
                  "cost": 9.67
                },
                {
                  "from_name": "Rooftop café",
                  "from_lat": 40.3863260250815,
                  "from_lng": -3.6690372396012445,
                  "to_name": "City center landmark walk",
                  "to_lat": 40.4733218113436,
                  "to_lng": -3.630171608405525,
                  "mode": "🚌 Public Transport",
                  "dist": 10.22,
                  "time_minutes": 18,
                  "cost": 12.66
                },
                {
                  "from_name": "City center landmark walk",
                  "from_lat": 40.4733218113436,
                  "from_lng": -3.630171608405525,
                  "to_name": "Senator Barajas",
                  "to_lat": 40.4058211112038,
                  "to_lng": -3.657342426181937,
                  "mode": "🚕 Taxi back to Hotel",
                  "dist": 7.85,
                  "time_minutes": 9,
                  "cost": 29.63
                }
              ],
              "day_cost": 89.02,
              "recommendation": ""
            },
            "2": {
              "legs": [
                {
                  "from_name": "Senator Barajas",
                  "from_lat": 40.4058211112038,
                  "from_lng": -3.657342426181937,
                  "to_name": "🔥 TRENDING: Teatro Kapital",
                  "to_lat": 40.4068,
                  "to_lng": -3.6946,
                  "mode": "🚌 Public Transport",
                  "dist": 3.16,
                  "time_minutes": 5,
                  "cost": 7.37
                },
                {
                  "from_name": "🔥 TRENDING: Teatro Kapital",
                  "from_lat": 40.4068,
                  "from_lng": -3.6946,
                  "to_name": "🔥 TRENDING: Sobrino de Botín",
                  "to_lat": 40.4149,
                  "to_lng": -3.7072,
                  "mode": "🚕 Taxi",
                  "dist": 1.4,
                  "time_minutes": 2,
                  "cost": 13.49
                },
                {
                  "from_name": "🔥 TRENDING: Sobrino de Botín",
                  "from_lat": 40.4149,
                  "from_lng": -3.7072,
                  "to_name": "Local souq haggling",
                  "to_lat": 40.49082181480089,
                  "to_lng": -3.6705882825107583,
                  "mode": "🚌 Public Transport",
                  "dist": 8.99,
                  "time_minutes": 15,
                  "cost": 11.74
                },
                {
                  "from_name": "Local souq haggling",
                  "from_lat": 40.49082181480089,
                  "from_lng": -3.6705882825107583,
                  "to_name": "Retiro Park",
                  "to_lat": 40.415,
                  "to_lng": -3.68389,
                  "mode": "🚌 Public Transport",
                  "dist": 8.51,
                  "time_minutes": 15,
                  "cost": 11.38
                },
                {
                  "from_name": "Retiro Park",
                  "from_lat": 40.415,
                  "from_lng": -3.68389,
                  "to_name": "Mall exploration",
                  "to_lat": 40.44824286324737,
                  "to_lng": -3.671949603400293,
                  "mode": "🚌 Public Transport",
                  "dist": 3.83,
                  "time_minutes": 7,
                  "cost": 7.87
                },
                {
                  "from_name": "Mall exploration",
                  "from_lat": 40.44824286324737,
                  "from_lng": -3.671949603400293,
                  "to_name": "Senator Barajas",
                  "to_lat": 40.4058211112038,
                  "to_lng": -3.657342426181937,
                  "mode": "🚕 Taxi back to Hotel",
                  "dist": 4.88,
                  "time_minutes": 5,
                  "cost": 22.19
                }
              ],
              "day_cost": 74.05,
              "recommendation": ""
            },
            "3": {
              "legs": [
                {
                  "from_name": "Senator Barajas",
                  "from_lat": 40.4058211112038,
                  "from_lng": -3.657342426181937,
                  "to_name": "🔥 TRENDING: \"Emociones\" Live Flamenco Performance at Teatro Flamenco Madrid",
                  "to_lat": 40.4239,
                  "to_lng": -3.7042,
                  "mode": "🚌 Public Transport",
                  "dist": 4.45,
                  "time_minutes": 8,
                  "cost": 8.34
                },
                {
                  "from_name": "🔥 TRENDING: \"Emociones\" Live Flamenco Performance at Teatro Flamenco Madrid",
                  "from_lat": 40.4239,
                  "from_lng": -3.7042,
                  "to_name": "🔥 TRENDING: Hola Coffee Lagasca",
                  "to_lat": 40.4262,
                  "to_lng": -3.6847,
                  "mode": "🚕 Taxi",
                  "dist": 1.67,
                  "time_minutes": 2,
                  "cost": 14.18
                },
                {
                  "from_name": "🔥 TRENDING: Hola Coffee Lagasca",
                  "from_lat": 40.4262,
                  "from_lng": -3.6847,
                  "to_name": "La Latina (neighborhood)",
                  "to_lat": 40.411279,
                  "to_lng": -3.7081611,
                  "mode": "🚕 Taxi",
                  "dist": 2.59,
                  "time_minutes": 3,
                  "cost": 16.47
                },
                {
                  "from_name": "La Latina (neighborhood)",
                  "from_lat": 40.411279,
                  "from_lng": -3.7081611,
                  "to_name": "Prado Museum",
                  "to_lat": 40.41378,
                  "to_lng": -3.692127,
                  "mode": "🚕 Taxi",
                  "dist": 1.39,
                  "time_minutes": 2,
                  "cost": 13.46
                },
                {
                  "from_name": "Prado Museum",
                  "from_lat": 40.41378,
                  "from_lng": -3.692127,
                  "to_name": "Royal Palace of Madrid",
                  "to_lat": 40.417953,
                  "to_lng": -3.714312,
                  "mode": "🚕 Taxi",
                  "dist": 1.93,
                  "time_minutes": 2,
                  "cost": 14.84
                },
                {
                  "from_name": "Royal Palace of Madrid",
                  "from_lat": 40.417953,
                  "from_lng": -3.714312,
                  "to_name": "Senator Barajas",
                  "to_lat": 40.4058211112038,
                  "to_lng": -3.657342426181937,
                  "mode": "🚕 Taxi back to Hotel",
                  "dist": 5.01,
                  "time_minutes": 5,
                  "cost": 22.52
                }
              ],
              "day_cost": 89.8,
              "recommendation": ""
            },
            "4": {
              "legs": [
                {
                  "from_name": "Senator Barajas",
                  "from_lat": 40.4058211112038,
                  "from_lng": -3.657342426181937,
                  "to_name": "🔥 TRENDING: Mercado de San Miguel",
                  "to_lat": 40.4154,
                  "to_lng": -3.7077,
                  "mode": "🚌 Public Transport",
                  "dist": 4.39,
                  "time_minutes": 8,
                  "cost": 8.3
                },
                {
                  "from_name": "🔥 TRENDING: Mercado de San Miguel",
                  "from_lat": 40.4154,
                  "from_lng": -3.7077,
                  "to_name": "🔥 TRENDING: Royal Palace of Madrid",
                  "to_lat": 40.4179,
                  "to_lng": -3.7143,
                  "mode": "🚶 Walk",
                  "dist": 0.62,
                  "time_minutes": 7,
                  "cost": 0
                },
                {
                  "from_name": "🔥 TRENDING: Royal Palace of Madrid",
                  "from_lat": 40.4179,
                  "from_lng": -3.7143,
                  "to_name": "Plaza Mayor",
                  "to_lat": 40.415524,
                  "to_lng": -3.707488,
                  "mode": "🚶 Walk",
                  "dist": 0.63,
                  "time_minutes": 8,
                  "cost": 0
                },
                {
                  "from_name": "Plaza Mayor",
                  "from_lat": 40.415524,
                  "from_lng": -3.707488,
                  "to_name": "Gran Vía",
                  "to_lat": 40.420177,
                  "to_lng": -3.703928,
                  "mode": "🚶 Walk",
                  "dist": 0.6,
                  "time_minutes": 7,
                  "cost": 0
                },
                {
                  "from_name": "Gran Vía",
                  "from_lat": 40.420177,
                  "from_lng": -3.703928,
                  "to_name": "Mercado de San Miguel",
                  "to_lat": 40.41536,
                  "to_lng": -3.70901,
                  "mode": "🚶 Walk",
                  "dist": 0.69,
                  "time_minutes": 8,
                  "cost": 0
                },
                {
                  "from_name": "Mercado de San Miguel",
                  "from_lat": 40.41536,
                  "from_lng": -3.70901,
                  "to_name": "Senator Barajas",
                  "to_lat": 40.4058211112038,
                  "to_lng": -3.657342426181937,
                  "mode": "🚕 Taxi back to Hotel",
                  "dist": 4.5,
                  "time_minutes": 5,
                  "cost": 21.25
                },
                {
                  "from_name": "Senator Barajas",
                  "from_lat": 40.4058211112038,
                  "from_lng": -3.657342426181937,
                  "to_name": "Riyadh",
                  "to_lat": 24.7136,
                  "to_lng": 46.6753,
                  "mode": "✈️ Return",
                  "dist": 0,
                  "time_minutes": 120,
                  "cost": 0.0,
                  "type": "inter_city"
                }
              ],
              "day_cost": 29.55,
              "recommendation": ""
            }
          },
          "total_transit_cost": 282.42,
          "simulation_routes": {
            "1": [
              {
                "name": "Riyadh",
                "lat": 24.7136,
                "lng": 46.6753,
                "type": "origin",
                "day": 1
              },
              {
                "name": "Senator Barajas",
                "lat": 40.4058211112038,
                "lng": -3.657342426181937,
                "type": "hotel",
                "day": 1
              },
              {
                "name": "🔥 TRENDING: El Retiro Park",
                "lat": 40.419,
                "lng": -3.6849,
                "type": "activity",
                "day": 1
              },
              {
                "name": "🔥 TRENDING: DiverXO",
                "lat": 40.4578,
                "lng": -3.6896,
                "type": "activity",
                "day": 1
              },
              {
                "name": "Historical palaces walking tour",
                "lat": 40.3852828929582,
                "lng": -3.7425770663307194,
                "type": "activity",
                "day": 1
              },
              {
                "name": "Rooftop café",
                "lat": 40.3863260250815,
                "lng": -3.6690372396012445,
                "type": "activity",
                "day": 1
              },
              {
                "name": "City center landmark walk",
                "lat": 40.4733218113436,
                "lng": -3.630171608405525,
                "type": "activity",
                "day": 1
              },
              {
                "name": "Senator Barajas",
                "lat": 40.4058211112038,
                "lng": -3.657342426181937,
                "type": "hotel_return",
                "day": 1
              }
            ],
            "2": [
              {
                "name": "Senator Barajas",
                "lat": 40.4058211112038,
                "lng": -3.657342426181937,
                "type": "hotel",
                "day": 2
              },
              {
                "name": "🔥 TRENDING: Teatro Kapital",
                "lat": 40.4068,
                "lng": -3.6946,
                "type": "activity",
                "day": 2
              },
              {
                "name": "🔥 TRENDING: Sobrino de Botín",
                "lat": 40.4149,
                "lng": -3.7072,
                "type": "activity",
                "day": 2
              },
              {
                "name": "Local souq haggling",
                "lat": 40.49082181480089,
                "lng": -3.6705882825107583,
                "type": "activity",
                "day": 2
              },
              {
                "name": "Retiro Park",
                "lat": 40.415,
                "lng": -3.68389,
                "type": "activity",
                "day": 2
              },
              {
                "name": "Mall exploration",
                "lat": 40.44824286324737,
                "lng": -3.671949603400293,
                "type": "activity",
                "day": 2
              },
              {
                "name": "Senator Barajas",
                "lat": 40.4058211112038,
                "lng": -3.657342426181937,
                "type": "hotel_return",
                "day": 2
              }
            ],
            "3": [
              {
                "name": "Senator Barajas",
                "lat": 40.4058211112038,
                "lng": -3.657342426181937,
                "type": "hotel",
                "day": 3
              },
              {
                "name": "🔥 TRENDING: \"Emociones\" Live Flamenco Performance at Teatro Flamenco Madrid",
                "lat": 40.4239,
                "lng": -3.7042,
                "type": "activity",
                "day": 3
              },
              {
                "name": "🔥 TRENDING: Hola Coffee Lagasca",
                "lat": 40.4262,
                "lng": -3.6847,
                "type": "activity",
                "day": 3
              },
              {
                "name": "La Latina (neighborhood)",
                "lat": 40.411279,
                "lng": -3.7081611,
                "type": "activity",
                "day": 3
              },
              {
                "name": "Prado Museum",
                "lat": 40.41378,
                "lng": -3.692127,
                "type": "activity",
                "day": 3
              },
              {
                "name": "Royal Palace of Madrid",
                "lat": 40.417953,
                "lng": -3.714312,
                "type": "activity",
                "day": 3
              },
              {
                "name": "Senator Barajas",
                "lat": 40.4058211112038,
                "lng": -3.657342426181937,
                "type": "hotel_return",
                "day": 3
              }
            ],
            "4": [
              {
                "name": "Senator Barajas",
                "lat": 40.4058211112038,
                "lng": -3.657342426181937,
                "type": "hotel",
                "day": 4
              },
              {
                "name": "🔥 TRENDING: Mercado de San Miguel",
                "lat": 40.4154,
                "lng": -3.7077,
                "type": "activity",
                "day": 4
              },
              {
                "name": "🔥 TRENDING: Royal Palace of Madrid",
                "lat": 40.4179,
                "lng": -3.7143,
                "type": "activity",
                "day": 4
              },
              {
                "name": "Plaza Mayor",
                "lat": 40.415524,
                "lng": -3.707488,
                "type": "activity",
                "day": 4
              },
              {
                "name": "Gran Vía",
                "lat": 40.420177,
                "lng": -3.703928,
                "type": "activity",
                "day": 4
              },
              {
                "name": "Mercado de San Miguel",
                "lat": 40.41536,
                "lng": -3.70901,
                "type": "activity",
                "day": 4
              },
              {
                "name": "Senator Barajas",
                "lat": 40.4058211112038,
                "lng": -3.657342426181937,
                "type": "hotel_return",
                "day": 4
              },
              {
                "name": "Riyadh",
                "lat": 24.7136,
                "lng": 46.6753,
                "type": "origin_return",
                "day": 4
              }
            ]
          },
          "full_trip_dataset": [
            {
              "from_name": "Riyadh",
              "from_lat": 24.7136,
              "from_lng": 46.6753,
              "to_name": "Senator Barajas",
              "to_lat": 40.4058211112038,
              "to_lng": -3.657342426181937,
              "mode": "✈️ Long-haul",
              "dist": 0,
              "time_minutes": 120,
              "cost": 0.0,
              "type": "inter_city"
            },
            {
              "from_name": "Senator Barajas",
              "from_lat": 40.4058211112038,
              "from_lng": -3.657342426181937,
              "to_name": "🔥 TRENDING: El Retiro Park",
              "to_lat": 40.419,
              "to_lng": -3.6849,
              "mode": "🚕 Taxi",
              "dist": 2.76,
              "time_minutes": 3,
              "cost": 16.89
            },
            {
              "from_name": "🔥 TRENDING: El Retiro Park",
              "from_lat": 40.419,
              "from_lng": -3.6849,
              "to_name": "🔥 TRENDING: DiverXO",
              "to_lat": 40.4578,
              "to_lng": -3.6896,
              "mode": "🚌 Public Transport",
              "dist": 4.33,
              "time_minutes": 7,
              "cost": 8.25
            },
            {
              "from_name": "🔥 TRENDING: DiverXO",
              "from_lat": 40.4578,
              "from_lng": -3.6896,
              "to_name": "Historical palaces walking tour",
              "to_lat": 40.3852828929582,
              "to_lng": -3.7425770663307194,
              "mode": "🚌 Public Transport",
              "dist": 9.23,
              "time_minutes": 16,
              "cost": 11.92
            },
            {
              "from_name": "Historical palaces walking tour",
              "from_lat": 40.3852828929582,
              "from_lng": -3.7425770663307194,
              "to_name": "Rooftop café",
              "to_lat": 40.3863260250815,
              "to_lng": -3.6690372396012445,
              "mode": "🚌 Public Transport",
              "dist": 6.23,
              "time_minutes": 11,
              "cost": 9.67
            },
            {
              "from_name": "Rooftop café",
              "from_lat": 40.3863260250815,
              "from_lng": -3.6690372396012445,
              "to_name": "City center landmark walk",
              "to_lat": 40.4733218113436,
              "to_lng": -3.630171608405525,
              "mode": "🚌 Public Transport",
              "dist": 10.22,
              "time_minutes": 18,
              "cost": 12.66
            },
            {
              "from_name": "City center landmark walk",
              "from_lat": 40.4733218113436,
              "from_lng": -3.630171608405525,
              "to_name": "Senator Barajas",
              "to_lat": 40.4058211112038,
              "to_lng": -3.657342426181937,
              "mode": "🚕 Taxi back to Hotel",
              "dist": 7.85,
              "time_minutes": 9,
              "cost": 29.63
            },
            {
              "from_name": "Senator Barajas",
              "from_lat": 40.4058211112038,
              "from_lng": -3.657342426181937,
              "to_name": "🔥 TRENDING: Teatro Kapital",
              "to_lat": 40.4068,
              "to_lng": -3.6946,
              "mode": "🚌 Public Transport",
              "dist": 3.16,
              "time_minutes": 5,
              "cost": 7.37
            },
            {
              "from_name": "🔥 TRENDING: Teatro Kapital",
              "from_lat": 40.4068,
              "from_lng": -3.6946,
              "to_name": "🔥 TRENDING: Sobrino de Botín",
              "to_lat": 40.4149,
              "to_lng": -3.7072,
              "mode": "🚕 Taxi",
              "dist": 1.4,
              "time_minutes": 2,
              "cost": 13.49
            },
            {
              "from_name": "🔥 TRENDING: Sobrino de Botín",
              "from_lat": 40.4149,
              "from_lng": -3.7072,
              "to_name": "Local souq haggling",
              "to_lat": 40.49082181480089,
              "to_lng": -3.6705882825107583,
              "mode": "🚌 Public Transport",
              "dist": 8.99,
              "time_minutes": 15,
              "cost": 11.74
            },
            {
              "from_name": "Local souq haggling",
              "from_lat": 40.49082181480089,
              "from_lng": -3.6705882825107583,
              "to_name": "Retiro Park",
              "to_lat": 40.415,
              "to_lng": -3.68389,
              "mode": "🚌 Public Transport",
              "dist": 8.51,
              "time_minutes": 15,
              "cost": 11.38
            },
            {
              "from_name": "Retiro Park",
              "from_lat": 40.415,
              "from_lng": -3.68389,
              "to_name": "Mall exploration",
              "to_lat": 40.44824286324737,
              "to_lng": -3.671949603400293,
              "mode": "🚌 Public Transport",
              "dist": 3.83,
              "time_minutes": 7,
              "cost": 7.87
            },
            {
              "from_name": "Mall exploration",
              "from_lat": 40.44824286324737,
              "from_lng": -3.671949603400293,
              "to_name": "Senator Barajas",
              "to_lat": 40.4058211112038,
              "to_lng": -3.657342426181937,
              "mode": "🚕 Taxi back to Hotel",
              "dist": 4.88,
              "time_minutes": 5,
              "cost": 22.19
            },
            {
              "from_name": "Senator Barajas",
              "from_lat": 40.4058211112038,
              "from_lng": -3.657342426181937,
              "to_name": "🔥 TRENDING: \"Emociones\" Live Flamenco Performance at Teatro Flamenco Madrid",
              "to_lat": 40.4239,
              "to_lng": -3.7042,
              "mode": "🚌 Public Transport",
              "dist": 4.45,
              "time_minutes": 8,
              "cost": 8.34
            },
            {
              "from_name": "🔥 TRENDING: \"Emociones\" Live Flamenco Performance at Teatro Flamenco Madrid",
              "from_lat": 40.4239,
              "from_lng": -3.7042,
              "to_name": "🔥 TRENDING: Hola Coffee Lagasca",
              "to_lat": 40.4262,
              "to_lng": -3.6847,
              "mode": "🚕 Taxi",
              "dist": 1.67,
              "time_minutes": 2,
              "cost": 14.18
            },
            {
              "from_name": "🔥 TRENDING: Hola Coffee Lagasca",
              "from_lat": 40.4262,
              "from_lng": -3.6847,
              "to_name": "La Latina (neighborhood)",
              "to_lat": 40.411279,
              "to_lng": -3.7081611,
              "mode": "🚕 Taxi",
              "dist": 2.59,
              "time_minutes": 3,
              "cost": 16.47
            },
            {
              "from_name": "La Latina (neighborhood)",
              "from_lat": 40.411279,
              "from_lng": -3.7081611,
              "to_name": "Prado Museum",
              "to_lat": 40.41378,
              "to_lng": -3.692127,
              "mode": "🚕 Taxi",
              "dist": 1.39,
              "time_minutes": 2,
              "cost": 13.46
            },
            {
              "from_name": "Prado Museum",
              "from_lat": 40.41378,
              "from_lng": -3.692127,
              "to_name": "Royal Palace of Madrid",
              "to_lat": 40.417953,
              "to_lng": -3.714312,
              "mode": "🚕 Taxi",
              "dist": 1.93,
              "time_minutes": 2,
              "cost": 14.84
            },
            {
              "from_name": "Royal Palace of Madrid",
              "from_lat": 40.417953,
              "from_lng": -3.714312,
              "to_name": "Senator Barajas",
              "to_lat": 40.4058211112038,
              "to_lng": -3.657342426181937,
              "mode": "🚕 Taxi back to Hotel",
              "dist": 5.01,
              "time_minutes": 5,
              "cost": 22.52
            },
            {
              "from_name": "Senator Barajas",
              "from_lat": 40.4058211112038,
              "from_lng": -3.657342426181937,
              "to_name": "Riyadh",
              "to_lat": 24.7136,
              "to_lng": 46.6753,
              "mode": "✈️ Return",
              "dist": 0,
              "time_minutes": 120,
              "cost": 0.0,
              "type": "inter_city"
            },
            {
              "from_name": "Senator Barajas",
              "from_lat": 40.4058211112038,
              "from_lng": -3.657342426181937,
              "to_name": "🔥 TRENDING: Mercado de San Miguel",
              "to_lat": 40.4154,
              "to_lng": -3.7077,
              "mode": "🚌 Public Transport",
              "dist": 4.39,
              "time_minutes": 8,
              "cost": 8.3
            },
            {
              "from_name": "🔥 TRENDING: Mercado de San Miguel",
              "from_lat": 40.4154,
              "from_lng": -3.7077,
              "to_name": "🔥 TRENDING: Royal Palace of Madrid",
              "to_lat": 40.4179,
              "to_lng": -3.7143,
              "mode": "🚶 Walk",
              "dist": 0.62,
              "time_minutes": 7,
              "cost": 0
            },
            {
              "from_name": "🔥 TRENDING: Royal Palace of Madrid",
              "from_lat": 40.4179,
              "from_lng": -3.7143,
              "to_name": "Plaza Mayor",
              "to_lat": 40.415524,
              "to_lng": -3.707488,
              "mode": "🚶 Walk",
              "dist": 0.63,
              "time_minutes": 8,
              "cost": 0
            },
            {
              "from_name": "Plaza Mayor",
              "from_lat": 40.415524,
              "from_lng": -3.707488,
              "to_name": "Gran Vía",
              "to_lat": 40.420177,
              "to_lng": -3.703928,
              "mode": "🚶 Walk",
              "dist": 0.6,
              "time_minutes": 7,
              "cost": 0
            },
            {
              "from_name": "Gran Vía",
              "from_lat": 40.420177,
              "from_lng": -3.703928,
              "to_name": "Mercado de San Miguel",
              "to_lat": 40.41536,
              "to_lng": -3.70901,
              "mode": "🚶 Walk",
              "dist": 0.69,
              "time_minutes": 8,
              "cost": 0
            },
            {
              "from_name": "Mercado de San Miguel",
              "from_lat": 40.41536,
              "from_lng": -3.70901,
              "to_name": "Senator Barajas",
              "to_lat": 40.4058211112038,
              "to_lng": -3.657342426181937,
              "mode": "🚕 Taxi back to Hotel",
              "dist": 4.5,
              "time_minutes": 5,
              "cost": 21.25
            }
          ]
        }
      ],
      "recommendation": 0
    },
    "cached_at": "2026-05-08T17:01:14.474662+00:00"
  }
}